{"type":"FeatureCollection","features":[{"type":"Feature","properties":{"ClubName":"FC Barcelona","GroupFinish":1,"ProgressedToQuartFin":1,"NumTitles":5,"LogoURL":"https://secure.cache.images.core.optasports.com/soccer/teams/150x150/2017.png"},"geometry":{"type":"Point","coordinates":[2.1749496459960938,41.381187993557965]}},{"type":"Feature","properties":{"ClubName":"Liverpool FC","GroupFinish":2,"ProgressedToQuartFin":1,"NumTitles":5,"LogoURL":"https://secure.cache.images.core.optasports.com/soccer/teams/150x150/663.png"},"geometry":{"type":"Point","coordinates":[-2.98828125,53.40298249424814]}},{"type":"Feature","properties":{"ClubName":"Manchester City FC","GroupFinish":1,"ProgressedToQuartFin":1,"NumTitles":0,"LogoURL":"https://secure.cache.images.core.optasports.com/soccer/teams/150x150/676.png"},"geometry":{"type":"Point","coordinates":[-2.2412109375,53.474969999548556]}},{"type":"Feature","properties":{"ClubName":"Juventus FC","GroupFinish":1,"ProgressedToQuartFin":1,"NumTitles":2,"LogoURL":"https://secure.cache.images.core.optasports.com/soccer/teams/150x150/1242.png"},"geometry":{"type":"Point","coordinates":[7.691802978515625,45.0657615477031]}},{"type":"Feature","properties":{"ClubName":"Real Madrid CF","GroupFinish":1,"ProgressedToQuartFin":0,"NumTitles":13,"LogoURL":"https://secure.cache.images.core.optasports.com/soccer/teams/150x150/2016.png"},"geometry":{"type":"Point","coordinates":[-3.779296875,40.39676430557203]}},{"type":"Feature","properties":{"ClubName":"AS Roma","GroupFinish":2,"ProgressedToQuartFin":0,"NumTitles":0,"LogoURL":"https://secure.cache.images.core.optasports.com/soccer/teams/150x150/1241.png"},"geometry":{"type":"Point","coordinates":[12.469482421875,41.89409955811395]}},{"type":"Feature","properties":{"ClubName":"FC Porto","GroupFinish":1,"ProgressedToQuartFin":1,"NumTitles":2,"LogoURL":"https://secure.cache.images.core.optasports.com/soccer/teams/150x150/1678.png"},"geometry":{"type":"Point","coordinates":[-8.61328125,41.1455697310095]}},{"type":"Feature","properties":{"ClubName":"FC Bayern Munich","GroupFinish":1,"ProgressedToQuartFin":0,"NumTitles":5,"LogoURL":"https://secure.cache.images.core.optasports.com/soccer/teams/150x150/961.png"},"geometry":{"type":"Point","coordinates":[11.57958984375,48.1367666796927]}},{"type":"Feature","properties":{"ClubName":"Paris Saint-Germain FC","GroupFinish":1,"ProgressedToQuartFin":0,"NumTitles":0,"LogoURL":"https://secure.cache.images.core.optasports.com/soccer/teams/150x150/886.png"},"geometry":{"type":"Point","coordinates":[2.340087890625,48.857487002645485]}},{"type":"Feature","properties":{"ClubName":"Olympique Lyonnais","GroupFinish":2,"ProgressedToQuartFin":0,"NumTitles":0,"LogoURL":"https://secure.cache.images.core.optasports.com/soccer/teams/150x150/884.png"},"geometry":{"type":"Point","coordinates":[4.833984374999999,45.75985868785574]}},{"type":"Feature","properties":{"ClubName":"Tottenham Hotspur FC","GroupFinish":2,"ProgressedToQuartFin":1,"NumTitles":0,"LogoURL":"https://secure.cache.images.core.optasports.com/soccer/teams/150x150/675.png"},"geometry":{"type":"Point","coordinates":[-0.252685546875,51.57706953722565]}},{"type":"Feature","properties":{"ClubName":"Borussia Dortmund","GroupFinish":1,"ProgressedToQuartFin":0,"NumTitles":1,"LogoURL":"https://secure.cache.images.core.optasports.com/soccer/teams/150x150/964.png"},"geometry":{"type":"Point","coordinates":[7.47344970703125,51.50703296721856]}},{"type":"Feature","properties":{"ClubName":"Manchester United FC","GroupFinish":2,"ProgressedToQuartFin":1,"NumTitles":3,"LogoURL":"https://secure.cache.images.core.optasports.com/soccer/teams/150x150/662.png"},"geometry":{"type":"Point","coordinates":[-2.164306640625,53.474969999548556]}},{"type":"Feature","properties":{"ClubName":"Atletico Madrid","GroupFinish":2,"ProgressedToQuartFin":0,"NumTitles":0,"LogoURL":"https://secure.cache.images.core.optasports.com/soccer/teams/150x150/2020.png"},"geometry":{"type":"Point","coordinates":[-3.69140625,40.39676430557203]}},{"type":"Feature","properties":{"ClubName":"FC Schalke 04","GroupFinish":2,"ProgressedToQuartFin":0,"NumTitles":0,"LogoURL":"https://secure.cache.images.core.optasports.com/soccer/teams/150x150/966.png"},"geometry":{"type":"Point","coordinates":[7.095451354980469,51.50959718054333]}},{"type":"Feature","properties":{"ClubName":"AFC Ajax","GroupFinish":2,"ProgressedToQuartFin":1,"NumTitles":4,"LogoURL":"https://secure.cache.images.core.optasports.com/soccer/teams/150x150/1515.png"},"geometry":{"type":"Point","coordinates":[4.89715576171875,52.3688917060255]}}]}